{"type": "FeatureCollection", "features": [{"type":"Feature","geometry":{"type":"Point","coordinates":[13.441639,52.500751]},"properties":{"cartodb_id":6,"description":"found by C","name":"Lonley Glove X´berg II","imageurl":"https://raw.githubusercontent.com/AConanDoyle/LonelyGloves/master/C_Kreuzberg_II_WhatsApp%20Image%202018-01-16%20at%2017.02.22.jpeg"}},{"type":"Feature","geometry":{"type":"Point","coordinates":[13.345555,52.484032]},"properties":{"cartodb_id":7,"description":"found by C","name":"Lonley Glove Schöneberg","imageurl":"https://raw.githubusercontent.com/AConanDoyle/LonelyGloves/master/C_Schoeneberg_WhatsApp%20Image%202018-02-06%20at%2012.14.20.jpeg"}},{"type":"Feature","geometry":{"type":"Point","coordinates":[13.385926,52.485313]},"properties":{"cartodb_id":1,"description":"found by C","name":"Lonely Glove Tempelhof ","imageurl":"https://raw.githubusercontent.com/AConanDoyle/LonelyGloves/master/C_Neukoelln_2017-12-02%20at%2020.09.09.jpeg"}},{"type":"Feature","geometry":{"type":"Point","coordinates":[13.418388,52.465093]},"properties":{"cartodb_id":3,"description":"found by C","name":"Lonely Glove Tempelhof  II","imageurl":"https://raw.githubusercontent.com/AConanDoyle/LonelyGloves/master/C_Temeplhof_II_WhatsApp%20Image%202017-12-14%20at%2010.43.45.jpeg"}},{"type":"Feature","geometry":{"type":"Point","coordinates":[13.388431,52.494041]},"properties":{"cartodb_id":13,"description":"found by C","name":"Lonley Glove X´berg III","imageurl":"https://raw.githubusercontent.com/AConanDoyle/LonelyGloves/master/C_Kreuzberg_III_WhatsApp%20Image%202018-02-22%20at%2014.01.51.jpeg"}},{"type":"Feature","geometry":{"type":"Point","coordinates":[13.463325,52.508168]},"properties":{"cartodb_id":4,"description":"found by C","name":"Lonley Glove F'hain","imageurl":"https://raw.githubusercontent.com/AConanDoyle/LonelyGloves/master/C_Fhain_WhatsApp%20Image%202018-01-14%20at%2001.15.39.jpeg"}},{"type":"Feature","geometry":{"type":"Point","coordinates":[13.388851,52.494614]},"properties":{"cartodb_id":5,"description":"found by C","name":"Lonley Glove X´berg","imageurl":"https://raw.githubusercontent.com/AConanDoyle/LonelyGloves/master/C_Kreuzberg_WhatsApp%20Image%202018-01-15%20at%2018.42.03.jpeg"}},{"type":"Feature","geometry":{"type":"Point","coordinates":[13.424593,52.467052]},"properties":{"cartodb_id":2,"description":"found by C","name":"Lonely Glove Neukölln I","imageurl":"https://raw.githubusercontent.com/AConanDoyle/LonelyGloves/master/C_Tempelhof_WhatsApp%20Image%202017-12-06%20at%2011.17.12.jpeg"}},{"type":"Feature","geometry":{"type":"Point","coordinates":[13.42265,52.46537]},"properties":{"cartodb_id":14,"description":"found by C","name":"Lonley Glove Neukölln II","imageurl":"https://raw.githubusercontent.com/AConanDoyle/LonelyGloves/master/C_Neukoelln_IIWhatsApp%20Image%202019-01-23%20at%2018.58.24.jpeg"}},{"type":"Feature","geometry":{"type":"Point","coordinates":[13.456987,52.511741]},"properties":{"cartodb_id":15,"description":"found by C","name":"Lonley Glove F'hain II","imageurl":"https://github.com/AConanDoyle/LonelyGloves/blob/master/C_Fhain_22019-11-03.jpeg?raw=true"}}]}